{
  "events": [
    {
      "id": 1,
      "title": "Basketball event",
      "date": "2016-04-1 10:00",
      "description": "descr match",
      "max": 10
    },
    {
      "title": 1,
      "date": 3,
      "description": 2,
      "id": 18
    },
    {
      "title": "",
      "date": "",
      "description": "",
      "lat": 0,
      "lon": 0,
      "id": 19
    },
    {
      "title": "asd",
      "date": "asd",
      "description": "asd",
      "lat": 51.08109643660297,
      "lon": 17.076873779296875,
      "id": 20
    },
    {
      "eventTitle": "Football match",
      "eventDate": "11-03-2017",
      "eventDescription": "Super match !",
      "lat": 51.13283119669277,
      "lon": 17.126312255859375,
      "id": 21
    },
    {
      "eventTitle": "asd",
      "eventDate": "asd",
      "eventDescription": "asd",
      "lat": 51.11817889367673,
      "lon": 17.061767578125,
      "id": 22
    },
    {
      "eventTitle": "Event",
      "eventDate": 203141,
      "eventDescription": "asdasd",
      "lat": 51.12421275782688,
      "lon": 17.083740234375,
      "users[]": 1,
      "id": 23
    },
    {
      "eventTitle": "asd",
      "eventDate": "",
      "eventDescription": "",
      "lat": 51.14575583962205,
      "lon": 17.076873779296875,
      "users[]": 1,
      "id": 24
    },
    {
      "eventTitle": "Kosz na odra",
      "eventDate": 2015,
      "eventDescription": "description",
      "lat": 51.12421275782688,
      "lon": 17.021942138671875,
      "users[]": 1,
      "id": 25
    }
  ],
  "users": [
    {
      "id": 1,
      "name": "test"
    },
    {
      "name": "asd",
      "id": 2
    },
    {
      "name": "",
      "id": 3
    }
  ]
}